[
  {
    "id": 101,
    "name": "썬힐G.C",
    "region": "경기",
    "city": "가평군",
    "address": "경기도 가평군 조종면 운악청계로 809 (썬힐골프클럽)",
    "holes": 18,
    "type": "퍼블릭",
    "difficulty": "중",
    "latitude": "37.8713739409",
    "longitude": "127.3530991843"
  },
  {
    "id": 102,
    "name": "마이다스밸리 청평 골프 클럽",
    "region": "경기",
    "city": "가평군",
    "address": "경기도 가평군 설악면 다락재로 73-111 (청평마이다스골프클럽)",
    "holes": 18,
    "type": "퍼블릭",
    "difficulty": "중",
    "latitude": "37.6657668527",
    "longitude": "127.4586935099"
  },
  {
    "id": 103,
    "name": "아난티클럽서울(주)",
    "region": "경기",
    "city": "가평군",
    "address": "경기도 가평군 설악면 유명로 961-34",
    "holes": 18,
    "type": "퍼블릭",
    "difficulty": "중",
    "latitude": "37.6273042984",
    "longitude": "127.4901065357"
  },
  {
    "id": 104,
    "name": "가평리조트 골프장",
    "region": "경기",
    "city": "가평군",
    "address": "경기도 가평군 조종면 운악청계로 702-24, 리앤리컨트리클럽",
    "holes": 18,
    "type": "퍼블릭",
    "difficulty": "중",
    "latitude": "37.8782193128",
    "longitude": "127.3643088474"
  },
  {
    "id": 105,
    "name": "베뉴지CC",
    "region": "경기",
    "city": "가평군",
    "address": "경기도 가평군 가평읍 용추로171번길 100, 가평베뉴지골프장",
    "holes": 18,
    "type": "퍼블릭",
    "difficulty": "중",
    "latitude": "37.8439555200",
    "longitude": "127.4781549123"
  },
  {
    "id": 106,
    "name": "프리스틴밸리G.C",
    "region": "경기",
    "city": "가평군",
    "address": "경기도 가평군 설악면 유명로 1243-199 (프리스틴밸리)",
    "holes": 18,
    "type": "퍼블릭",
    "difficulty": "중",
    "latitude": "37.6570210977",
    "longitude": "127.4514991893"
  },
  {
    "id": 107,
    "name": "일산스프링힐스 컨트리클럽",
    "region": "경기",
    "city": "고양시",
    "address": "경기도 고양시 일산동구 산황동 산 54번지 일원 ",
    "holes": 18,
    "type": "퍼블릭",
    "difficulty": "중",
    "latitude": null,
    "longitude": null
  },
  {
    "id": 108,
    "name": "1.2.3",
    "region": "경기",
    "city": "고양시",
    "address": "경기도 고양시 덕양구 통일로 43-168  (동산동)",
    "holes": 18,
    "type": "퍼블릭",
    "difficulty": "중",
    "latitude": "37.6414398785",
    "longitude": "126.9062352399"
  },
  {
    "id": 109,
    "name": "올림픽 골프장",
    "region": "경기",
    "city": "고양시",
    "address": "경기도 고양시 덕양구 혜음로 301  (벽제동)",
    "holes": 18,
    "type": "퍼블릭",
    "difficulty": "중",
    "latitude": "37.7218699377",
    "longitude": "126.8929986367"
  },
  {
    "id": 110,
    "name": "한양파인컨트리클럽",
    "region": "경기",
    "city": "고양시",
    "address": "경기도 고양시 덕양구 고양대로 1591 (성사동)",
    "holes": 18,
    "type": "퍼블릭",
    "difficulty": "중",
    "latitude": "37.6520403329",
    "longitude": "126.8631860956"
  },
  {
    "id": 111,
    "name": "고양컨트리클럽",
    "region": "경기",
    "city": "고양시",
    "address": "경기도 고양시 덕양구 흥도로 304-23  (도내동)",
    "holes": 18,
    "type": "퍼블릭",
    "difficulty": "중",
    "latitude": "37.6368630222",
    "longitude": "126.8583966891"
  },
  {
    "id": 112,
    "name": "뉴코리아 컨트리클럽",
    "region": "경기",
    "city": "고양시",
    "address": "경기도 고양시 덕양구 신원2로 57, 뉴코리아컨트리클럽 (신원동)",
    "holes": 18,
    "type": "퍼블릭",
    "difficulty": "중",
    "latitude": "37.6649114054",
    "longitude": "126.8767047762"
  },
  {
    "id": 113,
    "name": "그린힐 컨트리클럽",
    "region": "경기",
    "city": "광주시",
    "address": "경기도 광주시 곤지암읍 내선길 176",
    "holes": 18,
    "type": "퍼블릭",
    "difficulty": "중",
    "latitude": "37.3595294873",
    "longitude": "127.4247138204"
  },
  {
    "id": 114,
    "name": "더 시에나 서울 컨트리클럽",
    "region": "경기",
    "city": "광주시",
    "address": "경기도 광주시 곤지암읍 경충대로 451, 제 16동 1호(중부씨씨)",
    "holes": 18,
    "type": "퍼블릭",
    "difficulty": "중",
    "latitude": "37.3382398416",
    "longitude": "127.3574515981"
  },
  {
    "id": 115,
    "name": "강남300 컨트리클럽",
    "region": "경기",
    "city": "광주시",
    "address": "경기도 광주시 새말길 353 (목동)",
    "holes": 18,
    "type": "퍼블릭",
    "difficulty": "중",
    "latitude": "37.3869526836",
    "longitude": "127.1823773538"
  },
  {
    "id": 116,
    "name": "이스트밸리컨트리클럽",
    "region": "경기",
    "city": "광주시",
    "address": "경기도 광주시 곤지암읍 건업길 195",
    "holes": 18,
    "type": "퍼블릭",
    "difficulty": "중",
    "latitude": "37.4034321409",
    "longitude": "127.3861631015"
  },
  {
    "id": 117,
    "name": "로제비앙GC",
    "region": "경기",
    "city": "광주시",
    "address": "경기도 광주시 곤지암읍 오향길 180",
    "holes": 18,
    "type": "퍼블릭",
    "difficulty": "중",
    "latitude": "37.3800633333",
    "longitude": "127.3724631794"
  },
  {
    "id": 118,
    "name": "삼성물산(주)안양컨트리클럽",
    "region": "경기",
    "city": "군포시",
    "address": "경기도 군포시 군포로 364 (부곡동)",
    "holes": 18,
    "type": "퍼블릭",
    "difficulty": "중",
    "latitude": "37.3420476440",
    "longitude": "126.9456417624"
  },
  {
    "id": 119,
    "name": "김포 SEASIDE 컨트리클럽",
    "region": "경기",
    "city": "김포시",
    "address": "경기도 김포시 월곶면 김포대로2801번길 219",
    "holes": 18,
    "type": "퍼블릭",
    "difficulty": "중",
    "latitude": "37.7101299320",
    "longitude": "126.5341928032"
  },
  {
    "id": 120,
    "name": "광릉레져개발(주) 광릉CC",
    "region": "경기",
    "city": "남양주시",
    "address": "경기도 남양주시 진접읍 팔야로 280",
    "holes": 18,
    "type": "퍼블릭",
    "difficulty": "중",
    "latitude": "37.7589115878",
    "longitude": "127.2445848918"
  },
  {
    "id": 121,
    "name": "비전힐스CC",
    "region": "경기",
    "city": "남양주시",
    "address": "경기도 남양주시 화도읍 마치로 226-220",
    "holes": 18,
    "type": "퍼블릭",
    "difficulty": "중",
    "latitude": "37.6456746940",
    "longitude": "127.2743661428"
  },
  {
    "id": 122,
    "name": "근영농산(주)양주컨트리클럽",
    "region": "경기",
    "city": "남양주시",
    "address": "경기도 남양주시 화도읍 북한강로 1525-52",
    "holes": 18,
    "type": "퍼블릭",
    "difficulty": "중",
    "latitude": "37.6362022678",
    "longitude": "127.3480210419"
  },
  {
    "id": 123,
    "name": "록인 컨트리클럽",
    "region": "경기",
    "city": "남양주시",
    "address": "경기도 남양주시 화도읍 재재기로190번길 26",
    "holes": 18,
    "type": "퍼블릭",
    "difficulty": "중",
    "latitude": "37.6134801585",
    "longitude": "127.2898277942"
  },
  {
    "id": 124,
    "name": "라미드관광주식회사",
    "region": "경기",
    "city": "남양주시",
    "address": "경기도 남양주시 오남읍 진건오남로 516-31, 남양주cc",
    "holes": 18,
    "type": "퍼블릭",
    "difficulty": "중",
    "latitude": "37.6790156926",
    "longitude": "127.2161446914"
  },
  {
    "id": 125,
    "name": "제이레저(주) 티클라우드컨트리클럽",
    "region": "경기",
    "city": "동두천시",
    "address": "경기도 동두천시 평화로 3202 (하봉암동)",
    "holes": 18,
    "type": "퍼블릭",
    "difficulty": "중",
    "latitude": "37.9678007073",
    "longitude": "127.0892453722"
  },
  {
    "id": 126,
    "name": "경원건설(주)",
    "region": "경기",
    "city": "성남시",
    "address": "경기도 성남시 분당구 안양판교로1201번길 1201 (판교동)",
    "holes": 18,
    "type": "퍼블릭",
    "difficulty": "중",
    "latitude": "37.3826092729",
    "longitude": "127.0839756661"
  },
  {
    "id": 127,
    "name": "(재)한국군사문제연구원남성대쌍둥이골프연습장",
    "region": "경기",
    "city": "성남시",
    "address": "경기도 성남시 수정구 창곡동 92-1번지 ",
    "holes": 18,
    "type": "퍼블릭",
    "difficulty": "중",
    "latitude": null,
    "longitude": null
  },
  {
    "id": 128,
    "name": "솔트베이(Salt Bay) 골프클럽",
    "region": "경기",
    "city": "시흥시",
    "address": "경기도 시흥시 마유로 987 (장곡동)",
    "holes": 18,
    "type": "퍼블릭",
    "difficulty": "중",
    "latitude": "37.3910929635",
    "longitude": "126.7773182936"
  },
  {
    "id": 129,
    "name": "아세코밸리 골프클럽",
    "region": "경기",
    "city": "시흥시",
    "address": "경기도 시흥시 마전로 307 (거모동, 시흥아세코밸리골프장)",
    "holes": 18,
    "type": "퍼블릭",
    "difficulty": "중",
    "latitude": "37.3678102711",
    "longitude": "126.7713755012"
  },
  {
    "id": 130,
    "name": "아일랜드컨트리클럽",
    "region": "경기",
    "city": "안산시",
    "address": "경기도 안산시 단원구 대부남동 1111번지 ",
    "holes": 18,
    "type": "퍼블릭",
    "difficulty": "중",
    "latitude": "37.2332780656",
    "longitude": "126.5645834280"
  },
  {
    "id": 131,
    "name": "제일C.C",
    "region": "경기",
    "city": "안산시",
    "address": "경기도 안산시 상록구 태마당로 28 (부곡동)",
    "holes": 18,
    "type": "퍼블릭",
    "difficulty": "중",
    "latitude": "37.3302001597",
    "longitude": "126.8643211129"
  },
  {
    "id": 132,
    "name": "더헤븐 컨트리클럽",
    "region": "경기",
    "city": "안산시",
    "address": "경기도 안산시 단원구 대선로 466, ㈜더헤븐리조트 (대부남동)",
    "holes": 18,
    "type": "퍼블릭",
    "difficulty": "중",
    "latitude": "37.2290576811",
    "longitude": "126.5654892796"
  },
  {
    "id": 133,
    "name": "골프클럽  Q",
    "region": "경기",
    "city": "안성시",
    "address": "경기도 안성시 죽산면 장계길 20-229",
    "holes": 18,
    "type": "퍼블릭",
    "difficulty": "중",
    "latitude": "37.0469013207",
    "longitude": "127.3894979493"
  },
  {
    "id": 134,
    "name": "이글몬트cc",
    "region": "경기",
    "city": "안성시",
    "address": "경기도 안성시 보개면 보삼로 106",
    "holes": 18,
    "type": "퍼블릭",
    "difficulty": "중",
    "latitude": "37.0940556436",
    "longitude": "127.3290805161"
  },
  {
    "id": 135,
    "name": "에덴블루 컨트리클럽",
    "region": "경기",
    "city": "안성시",
    "address": "경기도 안성시 죽산면 녹배길 175",
    "holes": 18,
    "type": "퍼블릭",
    "difficulty": "중",
    "latitude": "37.0599544193",
    "longitude": "127.3805370140"
  },
  {
    "id": 136,
    "name": "크리스밸리CC",
    "region": "경기",
    "city": "안성시",
    "address": "경기도 안성시 일죽면 일생로 212-41",
    "holes": 18,
    "type": "퍼블릭",
    "difficulty": "중",
    "latitude": "37.0673249694",
    "longitude": "127.4926882429"
  },
  {
    "id": 137,
    "name": "윈체스트 골프클럽 대중",
    "region": "경기",
    "city": "안성시",
    "address": "경기도 안성시 서운면 오촌길 97-31",
    "holes": 18,
    "type": "퍼블릭",
    "difficulty": "중",
    "latitude": "36.9595919551",
    "longitude": "127.2818658523"
  },
  {
    "id": 138,
    "name": "한림안성",
    "region": "경기",
    "city": "안성시",
    "address": "경기도 안성시 양성면 양성로 349-61",
    "holes": 18,
    "type": "퍼블릭",
    "difficulty": "중",
    "latitude": "37.0852193993",
    "longitude": "127.2006417554"
  },
  {
    "id": 139,
    "name": "골프존카운티 안성W",
    "region": "경기",
    "city": "안성시",
    "address": "경기도 안성시 양성면 교동길 19-70",
    "holes": 18,
    "type": "퍼블릭",
    "difficulty": "중",
    "latitude": "37.0754876649",
    "longitude": "127.1950099835"
  },
  {
    "id": 140,
    "name": "안성베네스트골프클럽 일반대중홀",
    "region": "경기",
    "city": "안성시",
    "address": "경기도 안성시 금광면 삼흥로 660",
    "holes": 18,
    "type": "퍼블릭",
    "difficulty": "중",
    "latitude": "37.0203141752",
    "longitude": "127.3855343253"
  },
  {
    "id": 141,
    "name": "안성컨트리클럽",
    "region": "경기",
    "city": "안성시",
    "address": "경기도 안성시 죽산면 장계길 134",
    "holes": 18,
    "type": "퍼블릭",
    "difficulty": "중",
    "latitude": "37.0443372215",
    "longitude": "127.4057289298"
  },
  {
    "id": 142,
    "name": "신안 퍼블릭 CC",
    "region": "경기",
    "city": "안성시",
    "address": "경기도 안성시 고삼면 개울말길 149",
    "holes": 18,
    "type": "퍼블릭",
    "difficulty": "중",
    "latitude": "37.0927706903",
    "longitude": "127.2544108678"
  },
  {
    "id": 143,
    "name": "포웰CC 안성",
    "region": "경기",
    "city": "안성시",
    "address": "경기도 안성시 양성면 약산길 67-6",
    "holes": 18,
    "type": "퍼블릭",
    "difficulty": "중",
    "latitude": "37.1175022755",
    "longitude": "127.2615237807"
  },
  {
    "id": 144,
    "name": "골프존카운티 안성H",
    "region": "경기",
    "city": "안성시",
    "address": "경기도 안성시 보개면 보삼로 302",
    "holes": 18,
    "type": "퍼블릭",
    "difficulty": "중",
    "latitude": "37.0953360930",
    "longitude": "127.3424012271"
  },
  {
    "id": 145,
    "name": "마에스트로 CC",
    "region": "경기",
    "city": "안성시",
    "address": "경기도 안성시 양성면 안성맞춤대로 2134-36",
    "holes": 18,
    "type": "퍼블릭",
    "difficulty": "중",
    "latitude": "37.1021799957",
    "longitude": "127.2580268009"
  },
  {
    "id": 146,
    "name": "로얄개발(주) 레이크우드 골프장",
    "region": "경기",
    "city": "양주시",
    "address": "경기도 양주시 만송로 244 (만송동)",
    "holes": 18,
    "type": "퍼블릭",
    "difficulty": "중",
    "latitude": "37.7847656490",
    "longitude": "127.0871260560"
  },
  {
    "id": 147,
    "name": "(주)티에스개발 송추컨트리클럽",
    "region": "경기",
    "city": "양주시",
    "address": "경기도 양주시 광적면 쇠장이길 435",
    "holes": 18,
    "type": "퍼블릭",
    "difficulty": "중",
    "latitude": "37.7932075303",
    "longitude": "126.9104631482"
  },
  {
    "id": 148,
    "name": "더 스타 휴 컨트리클럽",
    "region": "경기",
    "city": "양평군",
    "address": "경기도 양평군 양동면 양동로 756",
    "holes": 18,
    "type": "퍼블릭",
    "difficulty": "중",
    "latitude": "37.4841568740",
    "longitude": "127.7030115092"
  },
  {
    "id": 149,
    "name": "양평TPC GC",
    "region": "경기",
    "city": "양평군",
    "address": "경기도 양평군 지평면 대평평장길 113-8 (양평TPC골프클럽)",
    "holes": 18,
    "type": "퍼블릭",
    "difficulty": "중",
    "latitude": "37.4136710003",
    "longitude": "127.6398096627"
  },
  {
    "id": 150,
    "name": "한일골프장",
    "region": "경기",
    "city": "여주군",
    "address": "경기도 여주군 가남면 양귀리 산 59번지 ",
    "holes": 18,
    "type": "퍼블릭",
    "difficulty": "중",
    "latitude": null,
    "longitude": null
  },
  {
    "id": 151,
    "name": "금강컨트리클럽",
    "region": "경기",
    "city": "여주시",
    "address": "경기도 여주시 가남읍 여주남로 541",
    "holes": 18,
    "type": "퍼블릭",
    "difficulty": "중",
    "latitude": "37.2430022254",
    "longitude": "127.5931537310"
  },
  {
    "id": 152,
    "name": "솔모로골프장",
    "region": "경기",
    "city": "여주시",
    "address": "경기도 여주시 가남읍 솔모로그린길 171",
    "holes": 18,
    "type": "퍼블릭",
    "difficulty": "중",
    "latitude": "37.1920131796",
    "longitude": "127.5883362256"
  },
  {
    "id": 153,
    "name": "렉스필드 컨트리클럽",
    "region": "경기",
    "city": "여주시",
    "address": "경기도 여주시 산북면 광여로 1115",
    "holes": 18,
    "type": "퍼블릭",
    "difficulty": "중",
    "latitude": "37.3988880198",
    "longitude": "127.4313969364"
  },
  {
    "id": 154,
    "name": "신라컨트리클럽",
    "region": "경기",
    "city": "여주시",
    "address": "경기도 여주시 북내면 신라그린길 84",
    "holes": 18,
    "type": "퍼블릭",
    "difficulty": "중",
    "latitude": "37.3580997897",
    "longitude": "127.6918987923"
  },
  {
    "id": 155,
    "name": "페럼클럽",
    "region": "경기",
    "city": "여주시",
    "address": "경기도 여주시 점동면 점동로 181",
    "holes": 18,
    "type": "퍼블릭",
    "difficulty": "중",
    "latitude": "37.2055129427",
    "longitude": "127.6907116469"
  },
  {
    "id": 156,
    "name": "아리지 골프장",
    "region": "경기",
    "city": "여주시",
    "address": "경기도 여주시 가남읍 아리지그린길 68",
    "holes": 18,
    "type": "퍼블릭",
    "difficulty": "중",
    "latitude": "37.2116077205",
    "longitude": "127.6022215098"
  },
  {
    "id": 157,
    "name": "더시에나벨루토 컨트리클럽",
    "region": "경기",
    "city": "여주시",
    "address": "경기도 여주시 여양로 530 (오금동)",
    "holes": 18,
    "type": "퍼블릭",
    "difficulty": "중",
    "latitude": "37.3290465918",
    "longitude": "127.6560877328"
  },
  {
    "id": 158,
    "name": "ROUTE 52CC",
    "region": "경기",
    "city": "여주시",
    "address": "경기도 여주시 북내면 중암1길 36",
    "holes": 18,
    "type": "퍼블릭",
    "difficulty": "중",
    "latitude": "37.3502355760",
    "longitude": "127.7201400371"
  },
  {
    "id": 159,
    "name": "YJC골프클럽",
    "region": "경기",
    "city": "여주시",
    "address": "경기도 여주시 월평로 78 (월송동)",
    "holes": 18,
    "type": "퍼블릭",
    "difficulty": "중",
    "latitude": "37.2785457215",
    "longitude": "127.6026278071"
  },
  {
    "id": 160,
    "name": "이포골프장",
    "region": "경기",
    "city": "여주시",
    "address": "경기도 여주시 금사면 장흥로 416",
    "holes": 18,
    "type": "퍼블릭",
    "difficulty": "중",
    "latitude": "37.3924810354",
    "longitude": "127.4974468387"
  },
  {
    "id": 161,
    "name": "빅토리아일반대중골프장",
    "region": "경기",
    "city": "여주시",
    "address": "경기도 여주시 가남읍 송삼로 191",
    "holes": 18,
    "type": "퍼블릭",
    "difficulty": "중",
    "latitude": "37.1808141860",
    "longitude": "127.6309976692"
  },
  {
    "id": 162,
    "name": "캐슬파인리조트주식회사",
    "region": "경기",
    "city": "여주시",
    "address": "경기도 여주시 강천면 부평로 580",
    "holes": 18,
    "type": "퍼블릭",
    "difficulty": "중",
    "latitude": "37.2982427952",
    "longitude": "127.7434122913"
  },
  {
    "id": 163,
    "name": "남여주대중골프장",
    "region": "경기",
    "city": "여주시",
    "address": "경기도 여주시 가여로 532 (하거동)",
    "holes": 18,
    "type": "퍼블릭",
    "difficulty": "중",
    "latitude": "37.2284148980",
    "longitude": "127.6335148851"
  },
  {
    "id": 164,
    "name": "스카이밸리골프장",
    "region": "경기",
    "city": "여주시",
    "address": "경기도 여주시 북내면 운촌길 254",
    "holes": 18,
    "type": "퍼블릭",
    "difficulty": "중",
    "latitude": "37.3334034734",
    "longitude": "127.7265930476"
  },
  {
    "id": 165,
    "name": "여주썬밸리 컨트리클럽",
    "region": "경기",
    "city": "여주시",
    "address": "경기도 여주시 강천면 강문로 872",
    "holes": 18,
    "type": "퍼블릭",
    "difficulty": "중",
    "latitude": "37.2716075235",
    "longitude": "127.7339647837"
  },
  {
    "id": 166,
    "name": "360도 컨트리클럽",
    "region": "경기",
    "city": "여주시",
    "address": "경기도 여주시 강천면 부평로 609",
    "holes": 18,
    "type": "퍼블릭",
    "difficulty": "중",
    "latitude": "37.3025867161",
    "longitude": "127.7393866828"
  },
  {
    "id": 167,
    "name": "소피아그린",
    "region": "경기",
    "city": "여주시",
    "address": "경기도 여주시 점동면 소피아그린길 84",
    "holes": 18,
    "type": "퍼블릭",
    "difficulty": "중",
    "latitude": "37.1717643204",
    "longitude": "127.7014405714"
  },
  {
    "id": 168,
    "name": "자유로컨트리클럽",
    "region": "경기",
    "city": "연천군",
    "address": "경기도 연천군 백학면 노아로297번길 179-55",
    "holes": 18,
    "type": "퍼블릭",
    "difficulty": "중",
    "latitude": "38.0000565528",
    "longitude": "126.9557595394"
  },
  {
    "id": 169,
    "name": "(주)한원컨트리클럽",
    "region": "경기",
    "city": "용인시",
    "address": "경기도 용인시 처인구 남사읍 전나무골길2번길 94, 한원C.C",
    "holes": 18,
    "type": "퍼블릭",
    "difficulty": "중",
    "latitude": "37.1570992442",
    "longitude": "127.1305445941"
  },
  {
    "id": 170,
    "name": "세현CC",
    "region": "경기",
    "city": "용인시",
    "address": "경기도 용인시 처인구 이동읍 백자로 450",
    "holes": 18,
    "type": "퍼블릭",
    "difficulty": "중",
    "latitude": "37.1877641955",
    "longitude": "127.1830782893"
  },
  {
    "id": 171,
    "name": "지산골프장",
    "region": "경기",
    "city": "용인시",
    "address": "경기도 용인시 원삼면 맹리 산 29-8번지 ",
    "holes": 18,
    "type": "퍼블릭",
    "difficulty": "중",
    "latitude": "37.2162162380",
    "longitude": "127.3366570128"
  },
  {
    "id": 172,
    "name": "은화삼",
    "region": "경기",
    "city": "용인시",
    "address": "경기도 용인시 처인구 백옥대로 860-38 (호동, 은화삼C.C)",
    "holes": 18,
    "type": "퍼블릭",
    "difficulty": "중",
    "latitude": "37.2141709022",
    "longitude": "127.2131167898"
  },
  {
    "id": 173,
    "name": "케이지써닝라이프(주)",
    "region": "경기",
    "city": "용인시",
    "address": "경기도 용인시 처인구 백암면 고안로51번길 205, 퓨쳐리더십센타",
    "holes": 18,
    "type": "퍼블릭",
    "difficulty": "중",
    "latitude": "37.1430993320",
    "longitude": "127.4202108703"
  },
  {
    "id": 174,
    "name": "지산 퍼블릭",
    "region": "경기",
    "city": "용인시",
    "address": "경기도 용인시 처인구 원삼면 죽양대로2000번길 60, 지산C.C",
    "holes": 18,
    "type": "퍼블릭",
    "difficulty": "중",
    "latitude": "37.2098794831",
    "longitude": "127.3358408486"
  },
  {
    "id": 175,
    "name": "지산리조트(주)",
    "region": "경기",
    "city": "용인시",
    "address": "경기도 용인시 처인구 원삼면 죽양대로2000번길 60, 지산C.C",
    "holes": 18,
    "type": "퍼블릭",
    "difficulty": "중",
    "latitude": "37.2098794831",
    "longitude": "127.3358408486"
  },
  {
    "id": 176,
    "name": "(주)일신레져(신원cc)",
    "region": "경기",
    "city": "용인시",
    "address": "경기도 용인시 처인구 이동읍 이원로 225",
    "holes": 18,
    "type": "퍼블릭",
    "difficulty": "중",
    "latitude": "37.1818122569",
    "longitude": "127.2413812390"
  },
  {
    "id": 177,
    "name": "파인리조트",
    "region": "경기",
    "city": "용인시",
    "address": "경기도 용인시 처인구 양지면 남평로 112",
    "holes": 18,
    "type": "퍼블릭",
    "difficulty": "중",
    "latitude": "37.2129073682",
    "longitude": "127.2948210725"
  },
  {
    "id": 178,
    "name": "해솔리아컨트리클럽",
    "region": "경기",
    "city": "용인시",
    "address": "경기도 용인시 처인구 이동읍 백자로 369, 해솔리아컨트리클럽",
    "holes": 18,
    "type": "퍼블릭",
    "difficulty": "중",
    "latitude": "37.2141018783",
    "longitude": "127.1791812324"
  },
  {
    "id": 179,
    "name": "용인씨씨",
    "region": "경기",
    "city": "용인시",
    "address": "경기도 용인시 처인구 백암면 황새울로 255",
    "holes": 18,
    "type": "퍼블릭",
    "difficulty": "중",
    "latitude": "37.1109616372",
    "longitude": "127.3453064977"
  },
  {
    "id": 180,
    "name": "글렌로스골프클럽",
    "region": "경기",
    "city": "용인시",
    "address": "경기도 용인시 처인구 포곡읍 에버랜드로 199, 삼성에버랜드",
    "holes": 18,
    "type": "퍼블릭",
    "difficulty": "중",
    "latitude": "37.2965457388",
    "longitude": "127.2077156604"
  },
  {
    "id": 181,
    "name": "한림용인",
    "region": "경기",
    "city": "용인시",
    "address": "경기도 용인시 처인구 남사면 경기동로 628",
    "holes": 18,
    "type": "퍼블릭",
    "difficulty": "중",
    "latitude": "37.1255841153",
    "longitude": "127.1829099444"
  },
  {
    "id": 182,
    "name": "레이크사이드회원",
    "region": "경기",
    "city": "용인시",
    "address": "경기도 용인시 처인구 모현읍 능원로 181",
    "holes": 18,
    "type": "퍼블릭",
    "difficulty": "중",
    "latitude": "37.3241158401",
    "longitude": "127.1752603061"
  },
  {
    "id": 183,
    "name": "태광컨트리클럽(대중제)",
    "region": "경기",
    "city": "용인시",
    "address": "경기도 용인시 기흥구 흥덕4로 77 (영덕동)",
    "holes": 18,
    "type": "퍼블릭",
    "difficulty": "중",
    "latitude": "37.2785710892",
    "longitude": "127.0890835842"
  },
  {
    "id": 184,
    "name": "블루원용인CC",
    "region": "경기",
    "city": "용인시",
    "address": "경기도 용인시 처인구 원삼면 보개원삼로1534번길 40",
    "holes": 18,
    "type": "퍼블릭",
    "difficulty": "중",
    "latitude": "37.1341824910",
    "longitude": "127.3259391728"
  },
  {
    "id": 185,
    "name": "아시아나CC",
    "region": "경기",
    "city": "용인시",
    "address": "경기도 용인시 처인구 양지면 양대로 290",
    "holes": 18,
    "type": "퍼블릭",
    "difficulty": "중",
    "latitude": "37.2545247440",
    "longitude": "127.2893856802"
  },
  {
    "id": 186,
    "name": "화산",
    "region": "경기",
    "city": "용인시",
    "address": "경기도 용인시 처인구 이동읍 화산로 239",
    "holes": 18,
    "type": "퍼블릭",
    "difficulty": "중",
    "latitude": "37.1540904875",
    "longitude": "127.2318018762"
  },
  {
    "id": 187,
    "name": "코리아대중CC",
    "region": "경기",
    "city": "용인시",
    "address": "경기도 용인시 기흥구 기흥단지로 224 (고매동)",
    "holes": 18,
    "type": "퍼블릭",
    "difficulty": "중",
    "latitude": "37.2235328306",
    "longitude": "127.1190840589"
  },
  {
    "id": 188,
    "name": "코리아컨트리클럽(회원제)",
    "region": "경기",
    "city": "용인시",
    "address": "경기도 용인시 처인구 이동읍 기흥단지로 579, 코리아CC",
    "holes": 18,
    "type": "퍼블릭",
    "difficulty": "중",
    "latitude": "37.2193606113",
    "longitude": "127.1547902224"
  },
  {
    "id": 189,
    "name": "블루원용인CC(비회원제)",
    "region": "경기",
    "city": "용인시",
    "address": "경기도 용인시 처인구 원삼면 보개원삼로1534번길 40",
    "holes": 18,
    "type": "퍼블릭",
    "difficulty": "중",
    "latitude": "37.1341824910",
    "longitude": "127.3259391728"
  },
  {
    "id": 190,
    "name": "레이크사이드대중",
    "region": "경기",
    "city": "용인시",
    "address": "경기도 용인시 처인구 모현읍 능원로 181",
    "holes": 18,
    "type": "퍼블릭",
    "difficulty": "중",
    "latitude": "37.3241158401",
    "longitude": "127.1752603061"
  },
  {
    "id": 191,
    "name": "골드컨트리클럽",
    "region": "경기",
    "city": "용인시",
    "address": "경기도 용인시 기흥구 기흥단지로 406 (고매동, 골드훼미리콘도)",
    "holes": 18,
    "type": "퍼블릭",
    "difficulty": "중",
    "latitude": "37.2210164091",
    "longitude": "127.1387431503"
  },
  {
    "id": 192,
    "name": "한성",
    "region": "경기",
    "city": "용인시",
    "address": "경기도 용인시 기흥구 구교동로 151 (마북동)",
    "holes": 18,
    "type": "퍼블릭",
    "difficulty": "중",
    "latitude": "37.3107190211",
    "longitude": "127.1144691874"
  },
  {
    "id": 193,
    "name": "플라자C.C",
    "region": "경기",
    "city": "용인시",
    "address": "경기도 용인시 처인구 남사읍 봉무로153번길 79, 한화리조트",
    "holes": 18,
    "type": "퍼블릭",
    "difficulty": "중",
    "latitude": "37.1336314038",
    "longitude": "127.1469837662"
  },
  {
    "id": 194,
    "name": "뉴스프링빌골프장",
    "region": "경기",
    "city": "이천시",
    "address": "경기도 이천시 모가면 사실로527번길 158, 뉴스프링빌C.C.",
    "holes": 18,
    "type": "퍼블릭",
    "difficulty": "중",
    "latitude": "37.1542659198",
    "longitude": "127.4314045964"
  },
  {
    "id": 195,
    "name": "뉴스프링빌골프장(대중형)",
    "region": "경기",
    "city": "이천시",
    "address": "경기도 이천시 모가면 사실로527번길 158, 뉴스프링빌C.C.",
    "holes": 18,
    "type": "퍼블릭",
    "difficulty": "중",
    "latitude": "37.1542659198",
    "longitude": "127.4314045964"
  },
  {
    "id": 196,
    "name": "더반골프클럽",
    "region": "경기",
    "city": "이천시",
    "address": "경기도 이천시 대월면 도리리 277번지 ",
    "holes": 18,
    "type": "퍼블릭",
    "difficulty": "중",
    "latitude": null,
    "longitude": null
  },
  {
    "id": 197,
    "name": "비에이비스타 골프장(회원제)",
    "region": "경기",
    "city": "이천시",
    "address": "경기도 이천시 모가면 어농로 272",
    "holes": 18,
    "type": "퍼블릭",
    "difficulty": "중",
    "latitude": "37.1805960356",
    "longitude": "127.4168818722"
  },
  {
    "id": 198,
    "name": "더반 골프클럽(대중형)",
    "region": "경기",
    "city": "이천시",
    "address": "경기도 이천시 대월면 대월로 627-141",
    "holes": 18,
    "type": "퍼블릭",
    "difficulty": "중",
    "latitude": "37.2092448031",
    "longitude": "127.4922012354"
  },
  {
    "id": 199,
    "name": "대중제 골프장(9홀)",
    "region": "경기",
    "city": "이천시",
    "address": "경기도 이천시 장호원읍 풍계리 산 52번지 ",
    "holes": 18,
    "type": "퍼블릭",
    "difficulty": "중",
    "latitude": null,
    "longitude": null
  },
  {
    "id": 200,
    "name": "블랙스톤골프장(회원제)",
    "region": "경기",
    "city": "이천시",
    "address": "경기도 이천시 장호원읍 장여로 459-160",
    "holes": 18,
    "type": "퍼블릭",
    "difficulty": "중",
    "latitude": "37.1615917511",
    "longitude": "127.6178657976"
  },
  {
    "id": 201,
    "name": "에이치원 클럽(H1 CLUB)",
    "region": "경기",
    "city": "이천시",
    "address": "경기도 이천시 호법면 장자터로 115",
    "holes": 18,
    "type": "퍼블릭",
    "difficulty": "중",
    "latitude": "37.1882658158",
    "longitude": "127.4033420252"
  },
  {
    "id": 202,
    "name": "블랙스톤골프장(대중형)",
    "region": "경기",
    "city": "이천시",
    "address": "경기도 이천시 장호원읍 장여로 459-160",
    "holes": 18,
    "type": "퍼블릭",
    "difficulty": "중",
    "latitude": "37.1615917511",
    "longitude": "127.6178657976"
  },
  {
    "id": 203,
    "name": "웰링턴컨트리클럽",
    "region": "경기",
    "city": "이천시",
    "address": "경기도 이천시 모가면 사실로725번길 119-73",
    "holes": 18,
    "type": "퍼블릭",
    "difficulty": "중",
    "latitude": "37.1711235970",
    "longitude": "127.4189648737"
  },
  {
    "id": 204,
    "name": "더크로스비골프클럽(대중형)",
    "region": "경기",
    "city": "이천시",
    "address": "경기도 이천시 호법면 중부대로798번길 177, 클럽하우스",
    "holes": 18,
    "type": "퍼블릭",
    "difficulty": "중",
    "latitude": "37.2338742376",
    "longitude": "127.4110851595"
  },
  {
    "id": 205,
    "name": "이천마이다스골프앤리조트(대중형)",
    "region": "경기",
    "city": "이천시",
    "address": "경기도 이천시 설성면 설가로 602",
    "holes": 18,
    "type": "퍼블릭",
    "difficulty": "중",
    "latitude": "37.1771071456",
    "longitude": "127.5244454250"
  },
  {
    "id": 206,
    "name": "이천실크밸리골프클럽(대중형)",
    "region": "경기",
    "city": "이천시",
    "address": "경기도 이천시 율면 임오산로 296",
    "holes": 18,
    "type": "퍼블릭",
    "difficulty": "중",
    "latitude": "37.0813204554",
    "longitude": "127.5722425055"
  },
  {
    "id": 207,
    "name": "비에이비스타C.C.(대중형)",
    "region": "경기",
    "city": "이천시",
    "address": "경기도 이천시 모가면 어농로 272",
    "holes": 18,
    "type": "퍼블릭",
    "difficulty": "중",
    "latitude": "37.1805960356",
    "longitude": "127.4168818722"
  },
  {
    "id": 208,
    "name": "사우스스프링스C.C(대중형)",
    "region": "경기",
    "city": "이천시",
    "address": "경기도 이천시 모가면 공원로 64",
    "holes": 18,
    "type": "퍼블릭",
    "difficulty": "중",
    "latitude": "37.1751975377",
    "longitude": "127.4509752934"
  },
  {
    "id": 209,
    "name": "마이다스 레이크 이천 골프& 리조트",
    "region": "경기",
    "city": "이천시",
    "address": "경기도 이천시 설성면 설가로 602",
    "holes": 18,
    "type": "퍼블릭",
    "difficulty": "중",
    "latitude": "37.1771071456",
    "longitude": "127.5244454250"
  },
  {
    "id": 210,
    "name": "백암비스타골프장",
    "region": "경기",
    "city": "이천시",
    "address": "경기도 이천시 모가면 어농리 산 86번지 ",
    "holes": 18,
    "type": "퍼블릭",
    "difficulty": "중",
    "latitude": null,
    "longitude": null
  },
  {
    "id": 211,
    "name": "파주 J-Public 골프장",
    "region": "경기",
    "city": "파주시",
    "address": "경기도 파주시 조리읍 장곡로 100",
    "holes": 18,
    "type": "퍼블릭",
    "difficulty": "중",
    "latitude": "37.7496868953",
    "longitude": "126.8446196107"
  },
  {
    "id": 212,
    "name": "노스팜 컨트리클럽",
    "region": "경기",
    "city": "파주시",
    "address": "경기도 파주시 광탄면 쇠장이길 265, 노스팜 컨트리클럽",
    "holes": 18,
    "type": "퍼블릭",
    "difficulty": "중",
    "latitude": "37.7888929825",
    "longitude": "126.9110085041"
  },
  {
    "id": 213,
    "name": "타이거CC 골프장",
    "region": "경기",
    "city": "파주시",
    "address": "경기도 파주시 법원읍 술이홀로 1803",
    "holes": 18,
    "type": "퍼블릭",
    "difficulty": "중",
    "latitude": "37.9239816889",
    "longitude": "126.8971324002"
  },
  {
    "id": 214,
    "name": "(주)베스트밸리골프클럽",
    "region": "경기",
    "city": "파주시",
    "address": "경기도 파주시 광탄면 장지산로200번길 32-41",
    "holes": 18,
    "type": "퍼블릭",
    "difficulty": "중",
    "latitude": "37.7551579790",
    "longitude": "126.8847689683"
  },
  {
    "id": 215,
    "name": "호반서서울 주식회사",
    "region": "경기",
    "city": "파주시",
    "address": "경기도 파주시 광탄면 혜음로 324",
    "holes": 18,
    "type": "퍼블릭",
    "difficulty": "중",
    "latitude": "37.7313337782",
    "longitude": "126.8965074932"
  },
  {
    "id": 216,
    "name": "스마트KU 골프 파빌리온",
    "region": "경기",
    "city": "파주시",
    "address": "경기도 파주시 법원읍 보광로 1616",
    "holes": 18,
    "type": "퍼블릭",
    "difficulty": "중",
    "latitude": "37.8237390540",
    "longitude": "126.8712013091"
  },
  {
    "id": 217,
    "name": "서원밸리골프클럽",
    "region": "경기",
    "city": "파주시",
    "address": "경기도 파주시 광탄면 서원길 333, 서원밸리G.C클럽",
    "holes": 18,
    "type": "퍼블릭",
    "difficulty": "중",
    "latitude": "37.8246569113",
    "longitude": "126.8932598867"
  },
  {
    "id": 218,
    "name": "서원밸리 대중골프장",
    "region": "경기",
    "city": "파주시",
    "address": "경기도 파주시 광탄면 서원길 333",
    "holes": 18,
    "type": "퍼블릭",
    "difficulty": "중",
    "latitude": "37.8246569113",
    "longitude": "126.8932598867"
  },
  {
    "id": 219,
    "name": "(주) 파주컨트리클럽",
    "region": "경기",
    "city": "파주시",
    "address": "경기도 파주시 법원읍 화합로 306",
    "holes": 18,
    "type": "퍼블릭",
    "difficulty": "중",
    "latitude": "37.8478812806",
    "longitude": "126.8998666622"
  },
  {
    "id": 220,
    "name": "푸른솔 골프클럽 포천",
    "region": "경기",
    "city": "포천시",
    "address": "경기도 포천시 가산면 금우로 276",
    "holes": 18,
    "type": "퍼블릭",
    "difficulty": "중",
    "latitude": "37.8414957408",
    "longitude": "127.2347761403"
  },
  {
    "id": 221,
    "name": "힐마루 골프앤리조트 포천",
    "region": "경기",
    "city": "포천시",
    "address": "경기도 포천시 영중면 금화봉4길 77",
    "holes": 18,
    "type": "퍼블릭",
    "difficulty": "중",
    "latitude": "37.9891581390",
    "longitude": "127.2240302397"
  },
  {
    "id": 222,
    "name": "COVE Swing",
    "region": "경기",
    "city": "포천시",
    "address": "경기도 포천시 삼육사로 1982 (설운동)",
    "holes": 18,
    "type": "퍼블릭",
    "difficulty": "중",
    "latitude": "37.8668111593",
    "longitude": "127.1360568076"
  },
  {
    "id": 223,
    "name": "포천아도니스 대중골프장",
    "region": "경기",
    "city": "포천시",
    "address": "경기도 포천시 신북면 포천로 2499",
    "holes": 18,
    "type": "퍼블릭",
    "difficulty": "중",
    "latitude": "37.9708996171",
    "longitude": "127.1719993269"
  },
  {
    "id": 224,
    "name": "일동레이크 골프클럽",
    "region": "경기",
    "city": "포천시",
    "address": "경기도 포천시 일동면 화동로 738",
    "holes": 18,
    "type": "퍼블릭",
    "difficulty": "중",
    "latitude": "37.9264683398",
    "longitude": "127.3250098978"
  },
  {
    "id": 225,
    "name": "필로스골프클럽",
    "region": "경기",
    "city": "포천시",
    "address": "경기도 포천시 일동면 운악청계로 1507",
    "holes": 18,
    "type": "퍼블릭",
    "difficulty": "중",
    "latitude": "37.9332319168",
    "longitude": "127.3338699119"
  },
  {
    "id": 226,
    "name": "포레스트힐C.C",
    "region": "경기",
    "city": "포천시",
    "address": "경기도 포천시 화현면 봉화로 253",
    "holes": 18,
    "type": "퍼블릭",
    "difficulty": "중",
    "latitude": "37.8728120785",
    "longitude": "127.2761652597"
  },
  {
    "id": 227,
    "name": "포천힐스컨트리클럽",
    "region": "경기",
    "city": "포천시",
    "address": "경기도 포천시 군내면 반월산성로375번길 34",
    "holes": 18,
    "type": "퍼블릭",
    "difficulty": "중",
    "latitude": "37.8864077354",
    "longitude": "127.2307144264"
  },
  {
    "id": 228,
    "name": "라싸골프클럽",
    "region": "경기",
    "city": "포천시",
    "address": "경기도 포천시 이동면 제비울2길 161",
    "holes": 18,
    "type": "퍼블릭",
    "difficulty": "중",
    "latitude": "37.9957266334",
    "longitude": "127.3859599166"
  },
  {
    "id": 229,
    "name": "샴발라 컨트리클럽",
    "region": "경기",
    "city": "포천시",
    "address": "경기도 포천시 군내면 청군로 2856-93",
    "holes": 18,
    "type": "퍼블릭",
    "difficulty": "중",
    "latitude": "37.8714997288",
    "longitude": "127.2553052190"
  },
  {
    "id": 230,
    "name": "일동레이크대중제골프장",
    "region": "경기",
    "city": "포천시",
    "address": "경기도 포천시 일동면 화동로 738",
    "holes": 18,
    "type": "퍼블릭",
    "difficulty": "중",
    "latitude": "37.9264683398",
    "longitude": "127.3250098978"
  },
  {
    "id": 231,
    "name": "베어크리크골프클럽",
    "region": "경기",
    "city": "포천시",
    "address": "경기도 포천시 화현면 달인동로 35",
    "holes": 18,
    "type": "퍼블릭",
    "difficulty": "중",
    "latitude": "37.9017308724",
    "longitude": "127.2787621265"
  },
  {
    "id": 232,
    "name": "몽베르컨트리클럽",
    "region": "경기",
    "city": "포천시",
    "address": "경기도 포천시 영북면 산정호수로 359-12",
    "holes": 18,
    "type": "퍼블릭",
    "difficulty": "중",
    "latitude": "38.0733390604",
    "longitude": "127.3056775249"
  },
  {
    "id": 233,
    "name": "(주)캐슬렉스서울 캐슬렉스골프클럽",
    "region": "경기",
    "city": "하남시",
    "address": "경기도 하남시 감이로 317 (감이동)",
    "holes": 18,
    "type": "퍼블릭",
    "difficulty": "중",
    "latitude": "37.4960480920",
    "longitude": "127.1700826569"
  },
  {
    "id": 234,
    "name": "신창기업(주)발리오스컨트리클럽(회원제)",
    "region": "경기",
    "city": "화성시",
    "address": "경기도 화성시 만세구 팔탄면 3.1만세로 641-28",
    "holes": 18,
    "type": "퍼블릭",
    "difficulty": "중",
    "latitude": "37.1165487427",
    "longitude": "126.8604049669"
  },
  {
    "id": 235,
    "name": "삼남개발(주) 기흥컨트리클럽",
    "region": "경기",
    "city": "화성시",
    "address": "경기도 화성시 동탄구 풀무골로106번길 244 (신동)",
    "holes": 18,
    "type": "퍼블릭",
    "difficulty": "중",
    "latitude": "37.1913750204",
    "longitude": "127.1466700596"
  },
  {
    "id": 236,
    "name": "링크나인골프클럽",
    "region": "경기",
    "city": "화성시",
    "address": "경기도 화성시 만세구 마도면 해운로630번길 49, LINK LINE G.C 클럽하우스",
    "holes": 18,
    "type": "퍼블릭",
    "difficulty": "중",
    "latitude": "37.1717997218",
    "longitude": "126.7532005181"
  },
  {
    "id": 237,
    "name": "화성골프클럽",
    "region": "경기",
    "city": "화성시",
    "address": "경기도 화성시 만세구 남양읍 화성로 1393-27",
    "holes": 18,
    "type": "퍼블릭",
    "difficulty": "중",
    "latitude": "37.2247484015",
    "longitude": "126.8350207515"
  },
  {
    "id": 238,
    "name": "화성 상록 G.C",
    "region": "경기",
    "city": "화성시",
    "address": "경기도 화성시 동탄구 풀무골로60번길 80 (중동)",
    "holes": 18,
    "type": "퍼블릭",
    "difficulty": "중",
    "latitude": "37.1970494680",
    "longitude": "127.1333473037"
  },
  {
    "id": 239,
    "name": "(주)관악 리베라컨트리클럽",
    "region": "경기",
    "city": "화성시",
    "address": "경기도 화성시 동탄구 중리길 183, 리베라CC클럽하우스 (청계동)",
    "holes": 18,
    "type": "퍼블릭",
    "difficulty": "중",
    "latitude": "37.1904757628",
    "longitude": "127.1127490699"
  },
  {
    "id": 240,
    "name": "신창기업(주)발리오스컨트리클럽(비회원제골프장업)",
    "region": "경기",
    "city": "화성시",
    "address": "경기도 화성시 만세구 팔탄면 3.1만세로 641-28",
    "holes": 18,
    "type": "퍼블릭",
    "difficulty": "중",
    "latitude": "37.1165487427",
    "longitude": "126.8604049669"
  },
  {
    "id": 241,
    "name": "(주)라비돌 라비돌컨트리클럽",
    "region": "경기",
    "city": "화성시",
    "address": "경기도 화성시 효행구 정남면 세자로 286",
    "holes": 18,
    "type": "퍼블릭",
    "difficulty": "중",
    "latitude": "37.1870830986",
    "longitude": "126.9841475182"
  }
]